{\rtf1\ansi\deff0\nouicompat{\fonttbl{\f0\fnil\fcharset0 Courier New;}}
{\*\generator Riched20 10.0.14393}\viewkind4\uc1 
\pard\f0\fs10\lang1033 % (lat/lon/height=WGS84/ellipsoidal,Q=1:fix,2:float,3:sbas,4:dgps,5:single,6:ppp,ns=# of satellites)\par
%  GPST          latitude(deg) longitude(deg)  height(m)   Q  ns   sdn(m)   sde(m)   sdu(m)  sdne(m)  sdeu(m)  sdun(m) age(s)  ratio\par
1933 438980.000   33.881788710 -117.882657729    56.8403   5  10   2.1919   1.9019   5.2865  -0.3560   1.1756  -1.2324   0.00    0.0\par
1933 438980.200   33.881788382 -117.882657394    56.8906   5  10   2.1919   1.9019   5.2865  -0.3561   1.1756  -1.2324   0.00    0.0\par
1933 438980.300   33.881788964 -117.882657403    56.9000   5  10   2.1919   1.9019   5.2864  -0.3562   1.1756  -1.2325   0.00    0.0\par
1933 438980.400   33.881789377 -117.882657306    56.8357   5  10   2.1919   1.9019   5.2864  -0.3562   1.1756  -1.2325   0.00    0.0\par
1933 438980.500   33.881788932 -117.882657256    56.8367   5  10   2.1919   1.9019   5.2864  -0.3563   1.1757  -1.2325   0.00    0.0\par
1933 438980.600   33.881789287 -117.882657097    56.9733   5  10   2.1919   1.9019   5.2864  -0.3564   1.1757  -1.2325   0.00    0.0\par
1933 438980.700   33.881789550 -117.882657315    56.9459   5  10   2.1919   1.9019   5.2863  -0.3564   1.1757  -1.2326   0.00    0.0\par
1933 438980.800   33.881789176 -117.882657609    57.1108   5  10   2.1919   1.9019   5.2863  -0.3565   1.1757  -1.2326   0.00    0.0\par
1933 438980.900   33.881789367 -117.882657561    57.2245   5  10   2.1919   1.9019   5.2863  -0.3565   1.1757  -1.2326   0.00    0.0\par
1933 438981.000   33.881788498 -117.882657398    57.3004   5  10   2.1919   1.9019   5.2862  -0.3566   1.1757  -1.2326   0.00    0.0\par
1933 438981.100   33.881788534 -117.882657383    57.3670   5  10   2.1919   1.9019   5.2862  -0.3566   1.1757  -1.2327   0.00    0.0\par
1933 438981.200   33.881788126 -117.882657000    57.4741   5  10   2.1919   1.9019   5.2862  -0.3567   1.1757  -1.2327   0.00    0.0\par
1933 438981.300   33.881788141 -117.882656856    57.3472   5  10   2.1919   1.9019   5.2862  -0.3567   1.1757  -1.2327   0.00    0.0\par
1933 438981.400   33.881788144 -117.882657194    57.3457   5  10   2.1919   1.9019   5.2861  -0.3568   1.1757  -1.2327   0.40    0.0\par
1933 438981.500   33.881787700 -117.882657417    57.4402   5  10   2.1919   1.9019   5.2861  -0.3569   1.1757  -1.2327   0.50    0.0\par
1933 438981.600   33.881787971 -117.882657133    57.4254   5  10   2.1919   1.9019   5.2861  -0.3569   1.1758  -1.2328   0.60    0.0\par
1933 438981.700   33.881787854 -117.882657127    57.4711   5  10   2.1919   1.9019   5.2860  -0.3570   1.1758  -1.2328   0.70    0.0\par
1933 438981.800   33.881787919 -117.882657413    57.4346   5  10   2.1919   1.9019   5.2860  -0.3570   1.1758  -1.2328   0.80    0.0\par
1933 438981.900   33.881787361 -117.882656915    57.4343   5  10   2.1919   1.9019   5.2860  -0.3571   1.1758  -1.2328   0.90    0.0\par
1933 438982.000   33.881786825 -117.882656733    57.6248   5  10   2.1918   1.9019   5.2860  -0.3571   1.1758  -1.2329   1.00    0.0\par
1933 438982.100   33.881786192 -117.882656839    57.6804   5  10   2.1918   1.9019   5.2859  -0.3572   1.1758  -1.2329   1.10    0.0\par
1933 438982.200   33.881786595 -117.882656123    57.8022   5  10   2.1918   1.9019   5.2859  -0.3573   1.1758  -1.2329   0.20    0.0\par
1933 438982.300   33.881786400 -117.882656305    57.7358   5  10   2.1918   1.9019   5.2859  -0.3573   1.1758  -1.2329   0.30    0.0\par
1933 438982.400   33.881786955 -117.882656142    57.8314   5  10   2.1918   1.9019   5.2859  -0.3574   1.1758  -1.2330   0.40    0.0\par
1933 438982.500   33.881787223 -117.882656081    57.9170   5  10   2.1918   1.9019   5.2858  -0.3574   1.1758  -1.2330   0.50    0.0\par
1933 438982.600   33.881787430 -117.882656399    57.8720   5  10   2.1918   1.9019   5.2858  -0.3575   1.1758  -1.2330   0.60    0.0\par
1933 438982.700   33.881787801 -117.882656226    57.7763   5  10   2.1918   1.9019   5.2858  -0.3575   1.1759  -1.2330   0.70    0.0\par
1933 438982.800   33.881788733 -117.882656484    57.8486   5  10   2.1918   1.9019   5.2857  -0.3576   1.1759  -1.2331   0.80    0.0\par
1933 438982.900   33.881788682 -117.882656646    57.7574   5  10   2.1918   1.9019   5.2857  -0.3577   1.1759  -1.2331   0.90    0.0\par
1933 438983.000   33.881788776 -117.882656656    57.6675   5  10   2.1918   1.9019   5.2857  -0.3577   1.1759  -1.2331   1.00    0.0\par
1933 438983.100   33.881788522 -117.882656736    57.7967   5  10   2.1918   1.9019   5.2857  -0.3578   1.1759  -1.2331   1.10    0.0\par
1933 438983.200   33.881788491 -117.882656635    57.8654   5  10   2.1918   1.9019   5.2856  -0.3578   1.1759  -1.2332   1.20    0.0\par
1933 438983.300   33.881787914 -117.882656919    57.8518   5  10   2.1918   1.9019   5.2856  -0.3579   1.1759  -1.2332   0.30    0.0\par
1933 438983.400   33.881787934 -117.882657252    57.8674   5  10   2.1918   1.9019   5.2856  -0.3579   1.1759  -1.2332   0.40    0.0\par
1933 438983.500   33.881788697 -117.882657206    57.8393   5  10   2.1918   1.9019   5.2856  -0.3580   1.1759  -1.2332   0.50    0.0\par
1933 438983.600   33.881788590 -117.882656909    57.7909   5  10   2.1918   1.9019   5.2855  -0.3580   1.1759  -1.2333   0.60    0.0\par
1933 438983.700   33.881788792 -117.882656997    57.6531   5  10   2.1918   1.9019   5.2855  -0.3581   1.1759  -1.2333   0.70    0.0\par
1933 438983.800   33.881788582 -117.882656923    57.7135   5  10   2.1918   1.9019   5.2855  -0.3582   1.1760  -1.2333   0.80    0.0\par
1933 438983.900   33.881789324 -117.882656464    57.6779   5  10   2.1918   1.9019   5.2854  -0.3582   1.1760  -1.2333   0.90    0.0\par
1933 438984.000   33.881789149 -117.882656625    57.7591   5  10   2.1918   1.9019   5.2854  -0.3583   1.1760  -1.2334   1.00    0.0\par
1933 438984.100   33.881789326 -117.882656869    57.8635   5  10   2.1918   1.9019   5.2854  -0.3583   1.1760  -1.2334   1.10    0.0\par
1933 438984.200   33.881788805 -117.882656730    57.8177   5  10   2.1918   1.9019   5.2854  -0.3584   1.1760  -1.2334   0.20    0.0\par
1933 438984.300   33.881788855 -117.882656783    57.8096   5  10   2.1918   1.9019   5.2853  -0.3584   1.1760  -1.2334   0.30    0.0\par
1933 438984.400   33.881788683 -117.882656976    57.7677   5  10   2.1918   1.9019   5.2853  -0.3585   1.1760  -1.2335   0.40    0.0\par
1933 438984.500   33.881789625 -117.882657113    57.7740   5  10   2.1918   1.9019   5.2853  -0.3585   1.1760  -1.2335   0.50    0.0\par
1933 438984.600   33.881789835 -117.882656600    57.7854   5  10   2.1918   1.9019   5.2852  -0.3586   1.1760  -1.2335   0.60    0.0\par
1933 438984.700   33.881790119 -117.882656174    57.8245   5  10   2.1918   1.9019   5.2852  -0.3587   1.1760  -1.2335   0.70    0.0\par
1933 438984.800   33.881790321 -117.882656091    57.7900   5  10   2.1918   1.9019   5.2852  -0.3587   1.1760  -1.2336   0.80    0.0\par
1933 438984.900   33.881789985 -117.882656199    57.7620   5  10   2.1918   1.9019   5.2852  -0.3588   1.1761  -1.2336   0.90    0.0\par
1933 438985.000   33.881789664 -117.882655892    57.7607   5  10   2.1918   1.9019   5.2851  -0.3588   1.1761  -1.2336   1.00    0.0\par
1933 438985.100   33.881789898 -117.882655691    57.8067   5  10   2.1918   1.9019   5.2851  -0.3589   1.1761  -1.2336   0.10    0.0\par
1933 438985.200   33.881789468 -117.882656184    57.5305   5  10   2.1918   1.9019   5.2851  -0.3589   1.1761  -1.2337   0.20    0.0\par
1933 438985.300   33.881789669 -117.882656476    57.5375   5  10   2.1918   1.9019   5.2851  -0.3590   1.1761  -1.2337   0.30    0.0\par
1933 438985.400   33.881789103 -117.882656851    57.7049   5  10   2.1918   1.9019   5.2850  -0.3591   1.1761  -1.2337   0.40    0.0\par
1933 438985.500   33.881789706 -117.882656319    57.7081   5  10   2.1918   1.9019   5.2850  -0.3591   1.1761  -1.2337   0.50    0.0\par
1933 438985.600   33.881790297 -117.882656880    57.6885   5  10   2.1918   1.9019   5.2850  -0.3592   1.1761  -1.2338   0.60    0.0\par
1933 438985.700   33.881790451 -117.882656800    57.8207   5  10   2.1918   1.9019   5.2849  -0.3592   1.1761  -1.2338   0.70    0.0\par
1933 438985.800   33.881790833 -117.882656593    57.8426   5  10   2.1918   1.9019   5.2849  -0.3593   1.1761  -1.2338   0.80    0.0\par
1933 438985.900   33.881791060 -117.882656914    57.9056   5  10   2.1918   1.9019   5.2849  -0.3593   1.1761  -1.2338   0.90    0.0\par
1933 438986.000   33.881790692 -117.882657343    57.9025   5  10   2.1918   1.9019   5.2849  -0.3594   1.1762  -1.2339   1.00    0.0\par
1933 438986.100   33.881791057 -117.882657070    57.9893   5  10   2.1918   1.9019   5.2848  -0.3594   1.1762  -1.2339   1.10    0.0\par
1933 438986.200   33.881790490 -117.882656917    58.0186   5  10   2.1918   1.9019   5.2848  -0.3595   1.1762  -1.2339   0.20    0.0\par
1933 438986.300   33.881790467 -117.882656527    58.0265   5  10   2.1918   1.9019   5.2848  -0.3596   1.1762  -1.2339   0.30    0.0\par
1933 438986.400   33.881790406 -117.882656376    58.0015   5  10   2.1917   1.9019   5.2847  -0.3596   1.1762  -1.2340   0.40    0.0\par
1933 438986.500   33.881790723 -117.882655387    57.9803   5  10   2.1917   1.9019   5.2847  -0.3597   1.1762  -1.2340   0.50    0.0\par
1933 438986.600   33.881791088 -117.882655334    58.0755   5  10   2.1917   1.9019   5.2847  -0.3597   1.1762  -1.2340   0.60    0.0\par
1933 438986.700   33.881790831 -117.882654653    58.1489   5  10   2.1917   1.9019   5.2847  -0.3598   1.1762  -1.2340   0.70    0.0\par
1933 438986.800   33.881790884 -117.882654308    58.2493   5  10   2.1917   1.9019   5.2846  -0.3598   1.1762  -1.2340   0.80    0.0\par
1933 438986.900   33.881790841 -117.882654607    58.3086   5  10   2.1917   1.9019   5.2846  -0.3599   1.1762  -1.2341   0.90    0.0\par
1933 438987.000   33.881790780 -117.882655049    58.3211   5  10   2.1917   1.9019   5.2846  -0.3599   1.1762  -1.2341   1.00    0.0\par
1933 438987.100   33.881790174 -117.882654707    58.2761   5  10   2.1917   1.9019   5.2846  -0.3600   1.1763  -1.2341   1.10    0.0\par
1933 438987.200   33.881789887 -117.882654889    58.0923   5  10   2.1917   1.9019   5.2845  -0.3601   1.1763  -1.2341   1.20    0.0\par
1933 438987.300   33.881789995 -117.882654971    58.0307   5  10   2.1917   1.9019   5.2845  -0.3601   1.1763  -1.2342   0.30    0.0\par
1933 438987.400   33.881790658 -117.882655142    57.8778   5  10   2.1917   1.9020   5.2845  -0.3602   1.1763  -1.2342   0.40    0.0\par
1933 438987.500   33.881791020 -117.882654823    57.8364   5  10   2.1917   1.9020   5.2844  -0.3602   1.1763  -1.2342   0.50    0.0\par
1933 438987.600   33.881790653 -117.882655252    57.6413   5  10   2.1917   1.9020   5.2844  -0.3603   1.1763  -1.2342   0.60    0.0\par
1933 438987.700   33.881790831 -117.882654777    57.5007   5  10   2.1917   1.9020   5.2844  -0.3603   1.1763  -1.2343   0.70    0.0\par
1933 438987.800   33.881790968 -117.882655371    57.5235   5  10   2.1917   1.9020   5.2844  -0.3604   1.1763  -1.2343   0.80    0.0\par
1933 438987.900   33.881790600 -117.882655247    57.5457   5  10   2.1917   1.9020   5.2843  -0.3605   1.1763  -1.2343   0.90    0.0\par
1933 438988.000   33.881790238 -117.882655961    57.3836   5  10   2.1917   1.9020   5.2843  -0.3605   1.1763  -1.2343   1.00    0.0\par
1933 438988.100   33.881790243 -117.882656909    57.3664   5  10   2.1917   1.9020   5.2843  -0.3606   1.1763  -1.2344   1.10    0.0\par
1933 438988.200   33.881790500 -117.882657047    57.4461   5  10   2.1917   1.9020   5.2842  -0.3606   1.1764  -1.2344   1.20    0.0\par
1933 438988.300   33.881790159 -117.882657038    57.1269   5  10   2.1917   1.9020   5.2842  -0.3607   1.1764  -1.2344   1.30    0.0\par
1933 438988.400   33.881790191 -117.882656865    57.2069   5  10   2.1917   1.9020   5.2842  -0.3607   1.1764  -1.2344   1.40    0.0\par
1933 438988.500   33.881789367 -117.882656385    57.0762   5  10   2.1917   1.9020   5.2842  -0.3608   1.1764  -1.2345   0.50    0.0\par
1933 438988.600   33.881789891 -117.882656321    56.8759   5  10   2.1917   1.9020   5.2841  -0.3608   1.1764  -1.2345   0.60    0.0\par
1933 438988.700   33.881790226 -117.882656478    56.7471   5  10   2.1917   1.9020   5.2841  -0.3609   1.1764  -1.2345   0.70    0.0\par
1933 438988.800   33.881790327 -117.882656905    56.5576   5  10   2.1917   1.9020   5.2841  -0.3610   1.1764  -1.2345   0.80    0.0\par
1933 438988.900   33.881790700 -117.882656590    56.4832   5  10   2.1917   1.9020   5.2841  -0.3610   1.1764  -1.2346   0.90    0.0\par
1933 438989.000   33.881790462 -117.882656917    56.3042   5  10   2.1917   1.9020   5.2840  -0.3611   1.1764  -1.2346   1.00    0.0\par
1933 438989.100   33.881790639 -117.882657316    56.4375   5  10   2.1917   1.9020   5.2840  -0.3611   1.1764  -1.2346   1.10    0.0\par
1933 438989.200   33.881790609 -117.882656993    56.5887   5  10   2.1917   1.9020   5.2840  -0.3612   1.1764  -1.2346   1.20    0.0\par
1933 438989.300   33.881790614 -117.882656877    56.6506   5  10   2.1917   1.9020   5.2839  -0.3612   1.1765  -1.2347   1.30    0.0\par
1933 438989.400   33.881790564 -117.882656436    56.6655   5  10   2.1917   1.9020   5.2839  -0.3613   1.1765  -1.2347   0.40    0.0\par
1933 438989.500   33.881790867 -117.882656923    56.4548   5  10   2.1917   1.9020   5.2839  -0.3613   1.1765  -1.2347   0.50    0.0\par
1933 438989.600   33.881790456 -117.882657542    56.5025   5  10   2.1917   1.9020   5.2839  -0.3614   1.1765  -1.2347   0.60    0.0\par
1933 438989.700   33.881790881 -117.882658862    56.4760   5  10   2.1917   1.9020   5.2838  -0.3615   1.1765  -1.2348   0.70    0.0\par
1933 438989.800   33.881791211 -117.882659387    56.4262   5  10   2.1917   1.9020   5.2838  -0.3615   1.1765  -1.2348   0.80    0.0\par
1933 438989.900   33.881791180 -117.882659540    56.3311   5  10   2.1917   1.9020   5.2838  -0.3616   1.1765  -1.2348   0.90    0.0\par
1933 438990.000   33.881791131 -117.882659547    56.3405   5  10   2.1917   1.9020   5.2837  -0.3616   1.1765  -1.2348   1.00    0.0\par
1933 438990.100   33.881791271 -117.882659357    56.3604   5  10   2.1917   1.9020   5.2837  -0.3617   1.1765  -1.2349   1.10    0.0\par
1933 438990.200   33.881791282 -117.882659607    56.4409   5  10   2.1917   1.9020   5.2837  -0.3617   1.1765  -1.2349   1.20    0.0\par
1933 438990.300   33.881791066 -117.882659907    56.4564   5  10   2.1917   1.9020   5.2837  -0.3618   1.1765  -1.2349   0.30    0.0\par
1933 438990.400   33.881790641 -117.882660033    56.4390   5  10   2.1917   1.9020   5.2836  -0.3618   1.1766  -1.2349   0.40    0.0\par
1933 438990.500   33.881791269 -117.882660531    56.4232   5  10   2.1917   1.9020   5.2836  -0.3619   1.1766  -1.2350   0.50    0.0\par
1933 438990.600   33.881790983 -117.882660447    56.3217   5  10   2.1917   1.9020   5.2836  -0.3620   1.1766  -1.2350   0.60    0.0\par
1933 438990.700   33.881790464 -117.882660805    56.2496   5  10   2.1917   1.9020   5.2836  -0.3620   1.1766  -1.2350   0.70    0.0\par
1933 438990.800   33.881790023 -117.882660852    56.1164   5  10   2.1916   1.9020   5.2835  -0.3621   1.1766  -1.2350   0.80    0.0\par
1933 438990.900   33.881790701 -117.882660474    56.0914   5  10   2.1916   1.9020   5.2835  -0.3621   1.1766  -1.2350   0.90    0.0\par
1933 438991.000   33.881790601 -117.882660376    56.1356   5  10   2.1916   1.9020   5.2835  -0.3622   1.1766  -1.2351   1.00    0.0\par
1933 438991.100   33.881790668 -117.882660826    56.2393   5  10   2.1916   1.9020   5.2834  -0.3622   1.1766  -1.2351   0.10    0.0\par
1933 438991.200   33.881790410 -117.882660822    56.3182   5  10   2.1916   1.9020   5.2834  -0.3623   1.1766  -1.2351   0.20    0.0\par
1933 438991.300   33.881790490 -117.882660743    56.1880   5  10   2.1916   1.9020   5.2834  -0.3623   1.1766  -1.2351   0.30    0.0\par
1933 438991.400   33.881790131 -117.882661155    56.2035   5  10   2.1916   1.9020   5.2834  -0.3624   1.1766  -1.2352   0.40    0.0\par
1933 438991.500   33.881790293 -117.882660825    56.2434   5  10   2.1916   1.9020   5.2833  -0.3625   1.1767  -1.2352   0.50    0.0\par
1933 438991.600   33.881790984 -117.882661319    56.2622   5  10   2.1916   1.9020   5.2833  -0.3625   1.1767  -1.2352   0.60    0.0\par
1933 438991.700   33.881790433 -117.882661856    56.2559   5  10   2.1916   1.9020   5.2833  -0.3626   1.1767  -1.2352   0.70    0.0\par
1933 438991.800   33.881790465 -117.882662151    56.3148   5  10   2.1916   1.9020   5.2832  -0.3626   1.1767  -1.2353   0.80    0.0\par
1933 438991.900   33.881790387 -117.882662176    56.1678   5  10   2.1916   1.9020   5.2832  -0.3627   1.1767  -1.2353   0.90    0.0\par
1933 438992.000   33.881789941 -117.882661852    56.0607   5  10   2.1916   1.9020   5.2832  -0.3627   1.1767  -1.2353   1.00    0.0\par
1933 438992.100   33.881790372 -117.882661575    56.0290   5  10   2.1916   1.9020   5.2832  -0.3628   1.1767  -1.2353   1.10    0.0\par
\fs22\par
}
 